[
  {
    "city": "Bishkek", 
    "lat": "42.8747", 
    "lng": "74.6122", 
    "country": "Kyrgyzstan", 
    "iso2": "KG", 
    "admin_name": "Bishkek", 
    "capital": "primary", 
    "population": "1120827", 
    "population_proper": "1120827"
  }, 
  {
    "city": "Osh", 
    "lat": "40.5300", 
    "lng": "72.8000", 
    "country": "Kyrgyzstan", 
    "iso2": "KG", 
    "admin_name": "Osh", 
    "capital": "admin", 
    "population": "353080", 
    "population_proper": "353080"
  }, 
  {
    "city": "Jalal-Abad", 
    "lat": "40.9333", 
    "lng": "73.0000", 
    "country": "Kyrgyzstan", 
    "iso2": "KG", 
    "admin_name": "Jalal-Abad", 
    "capital": "admin", 
    "population": "89004", 
    "population_proper": "89004"
  }, 
  {
    "city": "Karakol", 
    "lat": "42.4903", 
    "lng": "78.3917", 
    "country": "Kyrgyzstan", 
    "iso2": "KG", 
    "admin_name": "Ysyk-Köl", 
    "capital": "admin", 
    "population": "85588", 
    "population_proper": "85588"
  }, 
  {
    "city": "Tokmok", 
    "lat": "42.8333", 
    "lng": "75.2833", 
    "country": "Kyrgyzstan", 
    "iso2": "KG", 
    "admin_name": "Chüy", 
    "capital": "", 
    "population": "53231", 
    "population_proper": "53231"
  }, 
  {
    "city": "Kyzyl-Kyya", 
    "lat": "40.2611", 
    "lng": "72.1306", 
    "country": "Kyrgyzstan", 
    "iso2": "KG", 
    "admin_name": "Batken", 
    "capital": "", 
    "population": "51300", 
    "population_proper": "51300"
  }, 
  {
    "city": "Özgön", 
    "lat": "40.7667", 
    "lng": "73.3000", 
    "country": "Kyrgyzstan", 
    "iso2": "KG", 
    "admin_name": "Osh", 
    "capital": "", 
    "population": "49410", 
    "population_proper": "49410"
  }, 
  {
    "city": "Kara-Balta", 
    "lat": "42.8333", 
    "lng": "73.8500", 
    "country": "Kyrgyzstan", 
    "iso2": "KG", 
    "admin_name": "Chüy", 
    "capital": "minor", 
    "population": "48278", 
    "population_proper": "48278"
  }, 
  {
    "city": "Balykchy", 
    "lat": "42.4611", 
    "lng": "76.1803", 
    "country": "Kyrgyzstan", 
    "iso2": "KG", 
    "admin_name": "Ysyk-Köl", 
    "capital": "", 
    "population": "42380", 
    "population_proper": "42380"
  }, 
  {
    "city": "Bazar-Korgon", 
    "lat": "41.0417", 
    "lng": "72.7472", 
    "country": "Kyrgyzstan", 
    "iso2": "KG", 
    "admin_name": "Jalal-Abad", 
    "capital": "minor", 
    "population": "41011", 
    "population_proper": "41011"
  }, 
  {
    "city": "Talas", 
    "lat": "42.5167", 
    "lng": "72.2333", 
    "country": "Kyrgyzstan", 
    "iso2": "KG", 
    "admin_name": "Talas", 
    "capital": "admin", 
    "population": "40308", 
    "population_proper": "40308"
  }, 
  {
    "city": "Naryn", 
    "lat": "41.4333", 
    "lng": "76.0000", 
    "country": "Kyrgyzstan", 
    "iso2": "KG", 
    "admin_name": "Naryn", 
    "capital": "admin", 
    "population": "34822", 
    "population_proper": "34822"
  }, 
  {
    "city": "Isfana", 
    "lat": "39.8372", 
    "lng": "69.5333", 
    "country": "Kyrgyzstan", 
    "iso2": "KG", 
    "admin_name": "Batken", 
    "capital": "minor", 
    "population": "34219", 
    "population_proper": "34219"
  }, 
  {
    "city": "Aravan", 
    "lat": "40.5150", 
    "lng": "72.4992", 
    "country": "Kyrgyzstan", 
    "iso2": "KG", 
    "admin_name": "Osh", 
    "capital": "minor", 
    "population": "32917", 
    "population_proper": "32917"
  }, 
  {
    "city": "Sokuluk", 
    "lat": "42.8600", 
    "lng": "74.3000", 
    "country": "Kyrgyzstan", 
    "iso2": "KG", 
    "admin_name": "Chüy", 
    "capital": "minor", 
    "population": "30540", 
    "population_proper": "30540"
  }, 
  {
    "city": "Suzak", 
    "lat": "40.8981", 
    "lng": "72.9047", 
    "country": "Kyrgyzstan", 
    "iso2": "KG", 
    "admin_name": "Jalal-Abad", 
    "capital": "minor", 
    "population": "30534", 
    "population_proper": "30534"
  }, 
  {
    "city": "Batken", 
    "lat": "40.0667", 
    "lng": "70.8167", 
    "country": "Kyrgyzstan", 
    "iso2": "KG", 
    "admin_name": "Batken", 
    "capital": "admin", 
    "population": "27730", 
    "population_proper": "27730"
  }, 
  {
    "city": "Iradan", 
    "lat": "40.2600", 
    "lng": "72.1000", 
    "country": "Kyrgyzstan", 
    "iso2": "KG", 
    "admin_name": "Batken", 
    "capital": "", 
    "population": "26200", 
    "population_proper": "26200"
  }, 
  {
    "city": "Novopokrovka", 
    "lat": "42.8708", 
    "lng": "74.7508", 
    "country": "Kyrgyzstan", 
    "iso2": "KG", 
    "admin_name": "Chüy", 
    "capital": "", 
    "population": "21619", 
    "population_proper": "21619"
  }, 
  {
    "city": "Kant", 
    "lat": "42.8833", 
    "lng": "74.8500", 
    "country": "Kyrgyzstan", 
    "iso2": "KG", 
    "admin_name": "Chüy", 
    "capital": "minor", 
    "population": "21400", 
    "population_proper": "21400"
  }, 
  {
    "city": "Belovodskoe", 
    "lat": "42.8300", 
    "lng": "74.1000", 
    "country": "Kyrgyzstan", 
    "iso2": "KG", 
    "admin_name": "Chüy", 
    "capital": "minor", 
    "population": "21275", 
    "population_proper": "21275"
  }, 
  {
    "city": "Shark", 
    "lat": "40.5569", 
    "lng": "72.8264", 
    "country": "Kyrgyzstan", 
    "iso2": "KG", 
    "admin_name": "Osh", 
    "capital": "", 
    "population": "21120", 
    "population_proper": "21120"
  }, 
  {
    "city": "Jangy-Nookat", 
    "lat": "40.2500", 
    "lng": "72.5500", 
    "country": "Kyrgyzstan", 
    "iso2": "KG", 
    "admin_name": "Osh", 
    "capital": "", 
    "population": "21049", 
    "population_proper": "21049"
  }, 
  {
    "city": "Kara-Suu", 
    "lat": "40.7000", 
    "lng": "72.8833", 
    "country": "Kyrgyzstan", 
    "iso2": "KG", 
    "admin_name": "Osh", 
    "capital": "minor", 
    "population": "20862", 
    "population_proper": "20862"
  }, 
  {
    "city": "Lebedinovka", 
    "lat": "42.8800", 
    "lng": "74.6800", 
    "country": "Kyrgyzstan", 
    "iso2": "KG", 
    "admin_name": "Chüy", 
    "capital": "minor", 
    "population": "20709", 
    "population_proper": "20709"
  }, 
  {
    "city": "Toktogul", 
    "lat": "41.8722", 
    "lng": "72.9389", 
    "country": "Kyrgyzstan", 
    "iso2": "KG", 
    "admin_name": "Jalal-Abad", 
    "capital": "minor", 
    "population": "20577", 
    "population_proper": "20577"
  }, 
  {
    "city": "Kurshab", 
    "lat": "40.6917", 
    "lng": "73.1889", 
    "country": "Kyrgyzstan", 
    "iso2": "KG", 
    "admin_name": "Osh", 
    "capital": "", 
    "population": "20471", 
    "population_proper": "20471"
  }, 
  {
    "city": "Kashkar-Kyshtak", 
    "lat": "40.6200", 
    "lng": "72.8300", 
    "country": "Kyrgyzstan", 
    "iso2": "KG", 
    "admin_name": "Osh", 
    "capital": "", 
    "population": "20334", 
    "population_proper": "20334"
  }, 
  {
    "city": "Mayluu-Suu", 
    "lat": "41.2457", 
    "lng": "72.4480", 
    "country": "Kyrgyzstan", 
    "iso2": "KG", 
    "admin_name": "Jalal-Abad", 
    "capital": "", 
    "population": "20200", 
    "population_proper": "20200"
  }, 
  {
    "city": "Voyenno-Antonovka", 
    "lat": "42.8722", 
    "lng": "74.4500", 
    "country": "Kyrgyzstan", 
    "iso2": "KG", 
    "admin_name": "Chüy", 
    "capital": "", 
    "population": "20182", 
    "population_proper": "20182"
  }, 
  {
    "city": "Massy", 
    "lat": "41.0608", 
    "lng": "72.6328", 
    "country": "Kyrgyzstan", 
    "iso2": "KG", 
    "admin_name": "Jalal-Abad", 
    "capital": "minor", 
    "population": "19774", 
    "population_proper": "19774"
  }, 
  {
    "city": "Tash-Kömür", 
    "lat": "41.3500", 
    "lng": "72.2167", 
    "country": "Kyrgyzstan", 
    "iso2": "KG", 
    "admin_name": "Jalal-Abad", 
    "capital": "", 
    "population": "19310", 
    "population_proper": "19310"
  }, 
  {
    "city": "Kara-Köl", 
    "lat": "41.6311", 
    "lng": "72.6686", 
    "country": "Kyrgyzstan", 
    "iso2": "KG", 
    "admin_name": "Jalal-Abad", 
    "capital": "", 
    "population": "18843", 
    "population_proper": "18843"
  }, 
  {
    "city": "Novopavlovka", 
    "lat": "42.8700", 
    "lng": "74.4800", 
    "country": "Kyrgyzstan", 
    "iso2": "KG", 
    "admin_name": "Chüy", 
    "capital": "", 
    "population": "18332", 
    "population_proper": "18332"
  }, 
  {
    "city": "Eski-Nookat", 
    "lat": "40.2658", 
    "lng": "72.6181", 
    "country": "Kyrgyzstan", 
    "iso2": "KG", 
    "admin_name": "Osh", 
    "capital": "minor", 
    "population": "18228", 
    "population_proper": "18228"
  }, 
  {
    "city": "Ivanovka", 
    "lat": "42.8864", 
    "lng": "75.0822", 
    "country": "Kyrgyzstan", 
    "iso2": "KG", 
    "admin_name": "Chüy", 
    "capital": "minor", 
    "population": "17513", 
    "population_proper": "17513"
  }, 
  {
    "city": "Myrza-Ake", 
    "lat": "40.7500", 
    "lng": "73.4100", 
    "country": "Kyrgyzstan", 
    "iso2": "KG", 
    "admin_name": "Osh", 
    "capital": "", 
    "population": "16011", 
    "population_proper": "16011"
  }, 
  {
    "city": "Kara-Kulja", 
    "lat": "40.6333", 
    "lng": "73.5925", 
    "country": "Kyrgyzstan", 
    "iso2": "KG", 
    "admin_name": "Osh", 
    "capital": "minor", 
    "population": "15616", 
    "population_proper": "15616"
  }, 
  {
    "city": "Kyzyl-Suu", 
    "lat": "42.3425", 
    "lng": "78.0047", 
    "country": "Kyrgyzstan", 
    "iso2": "KG", 
    "admin_name": "Ysyk-Köl", 
    "capital": "minor", 
    "population": "15464", 
    "population_proper": "15464"
  }, 
  {
    "city": "Ala-Buka", 
    "lat": "41.4083", 
    "lng": "71.4806", 
    "country": "Kyrgyzstan", 
    "iso2": "KG", 
    "admin_name": "Jalal-Abad", 
    "capital": "minor", 
    "population": "15426", 
    "population_proper": "15426"
  }, 
  {
    "city": "Kochkor-Ata", 
    "lat": "41.0319", 
    "lng": "72.4833", 
    "country": "Kyrgyzstan", 
    "iso2": "KG", 
    "admin_name": "Jalal-Abad", 
    "capital": "", 
    "population": "14814", 
    "population_proper": "14814"
  }, 
  {
    "city": "Uch-Korgon", 
    "lat": "40.2300", 
    "lng": "72.0600", 
    "country": "Kyrgyzstan", 
    "iso2": "KG", 
    "admin_name": "Batken", 
    "capital": "minor", 
    "population": "14708", 
    "population_proper": "14708"
  }, 
  {
    "city": "At-Bashy", 
    "lat": "41.1700", 
    "lng": "75.8000", 
    "country": "Kyrgyzstan", 
    "iso2": "KG", 
    "admin_name": "Naryn", 
    "capital": "minor", 
    "population": "14655", 
    "population_proper": "14655"
  }, 
  {
    "city": "Aleksandrovka", 
    "lat": "42.8528", 
    "lng": "74.2194", 
    "country": "Kyrgyzstan", 
    "iso2": "KG", 
    "admin_name": "Chüy", 
    "capital": "", 
    "population": "14577", 
    "population_proper": "14577"
  }, 
  {
    "city": "Bökönbaev", 
    "lat": "42.1100", 
    "lng": "76.9900", 
    "country": "Kyrgyzstan", 
    "iso2": "KG", 
    "admin_name": "Ysyk-Köl", 
    "capital": "minor", 
    "population": "14267", 
    "population_proper": "14267"
  }, 
  {
    "city": "Kerben", 
    "lat": "41.5000", 
    "lng": "71.7500", 
    "country": "Kyrgyzstan", 
    "iso2": "KG", 
    "admin_name": "Jalal-Abad", 
    "capital": "minor", 
    "population": "14141", 
    "population_proper": "14141"
  }, 
  {
    "city": "Teploklyuchenka", 
    "lat": "42.5000", 
    "lng": "78.5250", 
    "country": "Kyrgyzstan", 
    "iso2": "KG", 
    "admin_name": "Ysyk-Köl", 
    "capital": "minor", 
    "population": "14055", 
    "population_proper": "14055"
  }, 
  {
    "city": "Frunze", 
    "lat": "40.1267", 
    "lng": "71.7236", 
    "country": "Kyrgyzstan", 
    "iso2": "KG", 
    "admin_name": "Batken", 
    "capital": "", 
    "population": "14049", 
    "population_proper": "14049"
  }, 
  {
    "city": "Gülchö", 
    "lat": "40.3167", 
    "lng": "73.4333", 
    "country": "Kyrgyzstan", 
    "iso2": "KG", 
    "admin_name": "Osh", 
    "capital": "minor", 
    "population": "13755", 
    "population_proper": "13755"
  }, 
  {
    "city": "Kyzyl-Adyr", 
    "lat": "42.6200", 
    "lng": "71.5900", 
    "country": "Kyrgyzstan", 
    "iso2": "KG", 
    "admin_name": "Talas", 
    "capital": "minor", 
    "population": "13612", 
    "population_proper": "13612"
  }, 
  {
    "city": "Dyykan-Kyshtak", 
    "lat": "40.5100", 
    "lng": "72.7800", 
    "country": "Kyrgyzstan", 
    "iso2": "KG", 
    "admin_name": "Osh", 
    "capital": "", 
    "population": "13406", 
    "population_proper": "13406"
  }, 
  {
    "city": "Sülüktü", 
    "lat": "39.9400", 
    "lng": "69.5600", 
    "country": "Kyrgyzstan", 
    "iso2": "KG", 
    "admin_name": "Batken", 
    "capital": "", 
    "population": "13378", 
    "population_proper": "13378"
  }, 
  {
    "city": "Sovetskoe", 
    "lat": "41.0600", 
    "lng": "72.7300", 
    "country": "Kyrgyzstan", 
    "iso2": "KG", 
    "admin_name": "Jalal-Abad", 
    "capital": "", 
    "population": "13178", 
    "population_proper": "13178"
  }, 
  {
    "city": "Kara-Kyshtak", 
    "lat": "40.1100", 
    "lng": "72.1000", 
    "country": "Kyrgyzstan", 
    "iso2": "KG", 
    "admin_name": "Batken", 
    "capital": "", 
    "population": "12990", 
    "population_proper": "12990"
  }, 
  {
    "city": "Chüy", 
    "lat": "42.8100", 
    "lng": "75.2800", 
    "country": "Kyrgyzstan", 
    "iso2": "KG", 
    "admin_name": "Chüy", 
    "capital": "minor", 
    "population": "12688", 
    "population_proper": "12688"
  }, 
  {
    "city": "Tüp", 
    "lat": "42.7300", 
    "lng": "78.3600", 
    "country": "Kyrgyzstan", 
    "iso2": "KG", 
    "admin_name": "Ysyk-Köl", 
    "capital": "minor", 
    "population": "12355", 
    "population_proper": "12355"
  }, 
  {
    "city": "Shamaldy-Say", 
    "lat": "41.1972", 
    "lng": "72.1803", 
    "country": "Kyrgyzstan", 
    "iso2": "KG", 
    "admin_name": "Jalal-Abad", 
    "capital": "", 
    "population": "12308", 
    "population_proper": "12308"
  }, 
  {
    "city": "Kök-Janggak", 
    "lat": "41.0333", 
    "lng": "73.2000", 
    "country": "Kyrgyzstan", 
    "iso2": "KG", 
    "admin_name": "Jalal-Abad", 
    "capital": "", 
    "population": "12117", 
    "population_proper": "12117"
  }, 
  {
    "city": "Nariman", 
    "lat": "40.5972", 
    "lng": "72.7972", 
    "country": "Kyrgyzstan", 
    "iso2": "KG", 
    "admin_name": "Osh", 
    "capital": "", 
    "population": "12021", 
    "population_proper": "12021"
  }, 
  {
    "city": "Kyzyl-Kyshtak", 
    "lat": "40.5444", 
    "lng": "72.7739", 
    "country": "Kyrgyzstan", 
    "iso2": "KG", 
    "admin_name": "Osh", 
    "capital": "", 
    "population": "11971", 
    "population_proper": "11971"
  }, 
  {
    "city": "Alamedin", 
    "lat": "42.8900", 
    "lng": "74.6300", 
    "country": "Kyrgyzstan", 
    "iso2": "KG", 
    "admin_name": "Chüy", 
    "capital": "", 
    "population": "11773", 
    "population_proper": "11773"
  }, 
  {
    "city": "Jangy-Kyshtak", 
    "lat": "40.5500", 
    "lng": "72.7306", 
    "country": "Kyrgyzstan", 
    "iso2": "KG", 
    "admin_name": "Osh", 
    "capital": "", 
    "population": "11647", 
    "population_proper": "11647"
  }, 
  {
    "city": "Cholpon-Ata", 
    "lat": "42.6500", 
    "lng": "77.0833", 
    "country": "Kyrgyzstan", 
    "iso2": "KG", 
    "admin_name": "Ysyk-Köl", 
    "capital": "minor", 
    "population": "11520", 
    "population_proper": "11520"
  }, 
  {
    "city": "Bek-Abad", 
    "lat": "40.8472", 
    "lng": "72.9750", 
    "country": "Kyrgyzstan", 
    "iso2": "KG", 
    "admin_name": "Jalal-Abad", 
    "capital": "", 
    "population": "11476", 
    "population_proper": "11476"
  }, 
  {
    "city": "Buzhum", 
    "lat": "40.0100", 
    "lng": "70.8300", 
    "country": "Kyrgyzstan", 
    "iso2": "KG", 
    "admin_name": "Batken", 
    "capital": "minor", 
    "population": "11400", 
    "population_proper": "11400"
  }, 
  {
    "city": "Kochkor", 
    "lat": "42.2158", 
    "lng": "75.7556", 
    "country": "Kyrgyzstan", 
    "iso2": "KG", 
    "admin_name": "Naryn", 
    "capital": "minor", 
    "population": "11373", 
    "population_proper": "11373"
  }, 
  {
    "city": "Naryn", 
    "lat": "41.1306", 
    "lng": "72.0806", 
    "country": "Kyrgyzstan", 
    "iso2": "KG", 
    "admin_name": "Jalal-Abad", 
    "capital": "", 
    "population": "11306", 
    "population_proper": "11306"
  }, 
  {
    "city": "Arslanbob", 
    "lat": "41.3333", 
    "lng": "72.9333", 
    "country": "Kyrgyzstan", 
    "iso2": "KG", 
    "admin_name": "Jalal-Abad", 
    "capital": "", 
    "population": "11291", 
    "population_proper": "11291"
  }, 
  {
    "city": "Kazarman", 
    "lat": "41.4000", 
    "lng": "74.0500", 
    "country": "Kyrgyzstan", 
    "iso2": "KG", 
    "admin_name": "Jalal-Abad", 
    "capital": "minor", 
    "population": "11191", 
    "population_proper": "11191"
  }, 
  {
    "city": "Imeni Chapayeva", 
    "lat": "40.2778", 
    "lng": "72.6361", 
    "country": "Kyrgyzstan", 
    "iso2": "KG", 
    "admin_name": "Osh", 
    "capital": "", 
    "population": "10895", 
    "population_proper": "10895"
  }, 
  {
    "city": "Petrovka", 
    "lat": "42.8389", 
    "lng": "74.0194", 
    "country": "Kyrgyzstan", 
    "iso2": "KG", 
    "admin_name": "Chüy", 
    "capital": "", 
    "population": "10879", 
    "population_proper": "10879"
  }, 
  {
    "city": "Kara-Tash", 
    "lat": "40.2167", 
    "lng": "72.6306", 
    "country": "Kyrgyzstan", 
    "iso2": "KG", 
    "admin_name": "Osh", 
    "capital": "", 
    "population": "10797", 
    "population_proper": "10797"
  }, 
  {
    "city": "Gülbaar", 
    "lat": "40.4800", 
    "lng": "72.6500", 
    "country": "Kyrgyzstan", 
    "iso2": "KG", 
    "admin_name": "Osh", 
    "capital": "", 
    "population": "10718", 
    "population_proper": "10718"
  }, 
  {
    "city": "Baetov", 
    "lat": "41.2100", 
    "lng": "74.9000", 
    "country": "Kyrgyzstan", 
    "iso2": "KG", 
    "admin_name": "Naryn", 
    "capital": "minor", 
    "population": "10682", 
    "population_proper": "10682"
  }, 
  {
    "city": "Leninskoe", 
    "lat": "42.9806", 
    "lng": "74.6722", 
    "country": "Kyrgyzstan", 
    "iso2": "KG", 
    "admin_name": "Chüy", 
    "capital": "", 
    "population": "10653", 
    "population_proper": "10653"
  }, 
  {
    "city": "Sadovoye", 
    "lat": "42.8528", 
    "lng": "74.1722", 
    "country": "Kyrgyzstan", 
    "iso2": "KG", 
    "admin_name": "Chüy", 
    "capital": "", 
    "population": "10545", 
    "population_proper": "10545"
  }, 
  {
    "city": "Maevka", 
    "lat": "42.9250", 
    "lng": "74.5694", 
    "country": "Kyrgyzstan", 
    "iso2": "KG", 
    "admin_name": "Chüy", 
    "capital": "", 
    "population": "10535", 
    "population_proper": "10535"
  }, 
  {
    "city": "Kemin", 
    "lat": "42.7861", 
    "lng": "75.6917", 
    "country": "Kyrgyzstan", 
    "iso2": "KG", 
    "admin_name": "Chüy", 
    "capital": "minor", 
    "population": "10354", 
    "population_proper": "10354"
  }, 
  {
    "city": "Aydarken", 
    "lat": "39.9400", 
    "lng": "71.3300", 
    "country": "Kyrgyzstan", 
    "iso2": "KG", 
    "admin_name": "Batken", 
    "capital": "", 
    "population": "10331", 
    "population_proper": "10331"
  }, 
  {
    "city": "Chong-Aryk", 
    "lat": "42.8139", 
    "lng": "74.5725", 
    "country": "Kyrgyzstan", 
    "iso2": "KG", 
    "admin_name": "Bishkek", 
    "capital": "", 
    "population": "10317", 
    "population_proper": "10317"
  }, 
  {
    "city": "Kulundu", 
    "lat": "40.1069", 
    "lng": "69.6431", 
    "country": "Kyrgyzstan", 
    "iso2": "KG", 
    "admin_name": "Batken", 
    "capital": "minor", 
    "population": "10170", 
    "population_proper": "10170"
  }, 
  {
    "city": "Kayyngdy", 
    "lat": "42.8300", 
    "lng": "73.6800", 
    "country": "Kyrgyzstan", 
    "iso2": "KG", 
    "admin_name": "Chüy", 
    "capital": "minor", 
    "population": "9561", 
    "population_proper": "9561"
  }, 
  {
    "city": "Tepe-Korgon", 
    "lat": "40.6000", 
    "lng": "72.4000", 
    "country": "Kyrgyzstan", 
    "iso2": "KG", 
    "admin_name": "Osh", 
    "capital": "", 
    "population": "9186", 
    "population_proper": "9186"
  }, 
  {
    "city": "Kara-Bak", 
    "lat": "40.1583", 
    "lng": "70.8167", 
    "country": "Kyrgyzstan", 
    "iso2": "KG", 
    "admin_name": "Batken", 
    "capital": "minor", 
    "population": "8923", 
    "population_proper": "8923"
  }, 
  {
    "city": "Ladan Kara", 
    "lat": "40.9264", 
    "lng": "72.9569", 
    "country": "Kyrgyzstan", 
    "iso2": "KG", 
    "admin_name": "Jalal-Abad", 
    "capital": "", 
    "population": "8886", 
    "population_proper": "8886"
  }, 
  {
    "city": "Shopokov", 
    "lat": "42.8400", 
    "lng": "74.3100", 
    "country": "Kyrgyzstan", 
    "iso2": "KG", 
    "admin_name": "Chüy", 
    "capital": "", 
    "population": "8749", 
    "population_proper": "8749"
  }, 
  {
    "city": "Pokrovka", 
    "lat": "42.7500", 
    "lng": "71.6000", 
    "country": "Kyrgyzstan", 
    "iso2": "KG", 
    "admin_name": "Talas", 
    "capital": "minor", 
    "population": "8522", 
    "population_proper": "8522"
  }, 
  {
    "city": "Saruu", 
    "lat": "42.3222", 
    "lng": "77.9222", 
    "country": "Kyrgyzstan", 
    "iso2": "KG", 
    "admin_name": "Ysyk-Köl", 
    "capital": "", 
    "population": "8501", 
    "population_proper": "8501"
  }, 
  {
    "city": "Tash-Bulak", 
    "lat": "40.9556", 
    "lng": "73.0194", 
    "country": "Kyrgyzstan", 
    "iso2": "KG", 
    "admin_name": "Jalal-Abad", 
    "capital": "", 
    "population": "8448", 
    "population_proper": "8448"
  }, 
  {
    "city": "Ak-Korgon", 
    "lat": "41.3833", 
    "lng": "71.5861", 
    "country": "Kyrgyzstan", 
    "iso2": "KG", 
    "admin_name": "Jalal-Abad", 
    "capital": "", 
    "population": "8132", 
    "population_proper": "8132"
  }, 
  {
    "city": "Samarkandyk", 
    "lat": "39.9944", 
    "lng": "70.5389", 
    "country": "Kyrgyzstan", 
    "iso2": "KG", 
    "admin_name": "Batken", 
    "capital": "minor", 
    "population": "8015", 
    "population_proper": "8015"
  }, 
  {
    "city": "Andarak", 
    "lat": "39.7500", 
    "lng": "69.4600", 
    "country": "Kyrgyzstan", 
    "iso2": "KG", 
    "admin_name": "Batken", 
    "capital": "minor", 
    "population": "8001", 
    "population_proper": "8001"
  }, 
  {
    "city": "Novonikolayevka", 
    "lat": "42.8306", 
    "lng": "73.8889", 
    "country": "Kyrgyzstan", 
    "iso2": "KG", 
    "admin_name": "Chüy", 
    "capital": "", 
    "population": "7964", 
    "population_proper": "7964"
  }, 
  {
    "city": "Markaz", 
    "lat": "40.2417", 
    "lng": "71.9083", 
    "country": "Kyrgyzstan", 
    "iso2": "KG", 
    "admin_name": "Batken", 
    "capital": "minor", 
    "population": "7860", 
    "population_proper": "7860"
  }, 
  {
    "city": "Oktyabr’skoe", 
    "lat": "43.1167", 
    "lng": "74.4944", 
    "country": "Kyrgyzstan", 
    "iso2": "KG", 
    "admin_name": "Chüy", 
    "capital": "", 
    "population": "7621", 
    "population_proper": "7621"
  }, 
  {
    "city": "Krasnaya Rechka", 
    "lat": "42.9000", 
    "lng": "74.9600", 
    "country": "Kyrgyzstan", 
    "iso2": "KG", 
    "admin_name": "Chüy", 
    "capital": "", 
    "population": "7613", 
    "population_proper": "7613"
  }, 
  {
    "city": "Kara-Dekhkan", 
    "lat": "40.7889", 
    "lng": "73.3667", 
    "country": "Kyrgyzstan", 
    "iso2": "KG", 
    "admin_name": "Osh", 
    "capital": "", 
    "population": "7492", 
    "population_proper": "7492"
  }, 
  {
    "city": "Kyzyl-Bel’", 
    "lat": "40.1000", 
    "lng": "70.7472", 
    "country": "Kyrgyzstan", 
    "iso2": "KG", 
    "admin_name": "Batken", 
    "capital": "", 
    "population": "7481", 
    "population_proper": "7481"
  }, 
  {
    "city": "Bosteri", 
    "lat": "42.6500", 
    "lng": "77.1800", 
    "country": "Kyrgyzstan", 
    "iso2": "KG", 
    "admin_name": "Ysyk-Köl", 
    "capital": "", 
    "population": "7415", 
    "population_proper": "7415"
  }, 
  {
    "city": "Prigorodnoye", 
    "lat": "42.9028", 
    "lng": "74.5417", 
    "country": "Kyrgyzstan", 
    "iso2": "KG", 
    "admin_name": "Chüy", 
    "capital": "", 
    "population": "7406", 
    "population_proper": "7406"
  }, 
  {
    "city": "Katran", 
    "lat": "39.8425", 
    "lng": "70.0111", 
    "country": "Kyrgyzstan", 
    "iso2": "KG", 
    "admin_name": "Batken", 
    "capital": "minor", 
    "population": "7149", 
    "population_proper": "7149"
  }, 
  {
    "city": "Kyzyl-Dzhar", 
    "lat": "41.1472", 
    "lng": "72.0917", 
    "country": "Kyrgyzstan", 
    "iso2": "KG", 
    "admin_name": "Jalal-Abad", 
    "capital": "", 
    "population": "7074", 
    "population_proper": "7074"
  }, 
  {
    "city": "Myrza-Aryk", 
    "lat": "40.7250", 
    "lng": "73.2250", 
    "country": "Kyrgyzstan", 
    "iso2": "KG", 
    "admin_name": "Osh", 
    "capital": "", 
    "population": "7013", 
    "population_proper": "7013"
  }, 
  {
    "city": "Chaek", 
    "lat": "41.9278", 
    "lng": "74.5139", 
    "country": "Kyrgyzstan", 
    "iso2": "KG", 
    "admin_name": "Naryn", 
    "capital": "minor", 
    "population": "7009", 
    "population_proper": "7009"
  }, 
  {
    "city": "Borbash", 
    "lat": "40.2647", 
    "lng": "72.5083", 
    "country": "Kyrgyzstan", 
    "iso2": "KG", 
    "admin_name": "Osh", 
    "capital": "", 
    "population": "6931", 
    "population_proper": "6931"
  }, 
  {
    "city": "Ivanovo-Alekseyevka", 
    "lat": "42.5472", 
    "lng": "72.2111", 
    "country": "Kyrgyzstan", 
    "iso2": "KG", 
    "admin_name": "Talas", 
    "capital": "minor", 
    "population": "6904", 
    "population_proper": "6904"
  }, 
  {
    "city": "Tsentralnoye", 
    "lat": "40.1879", 
    "lng": "69.8333", 
    "country": "Kyrgyzstan", 
    "iso2": "KG", 
    "admin_name": "Batken", 
    "capital": "minor", 
    "population": "6900", 
    "population_proper": "6900"
  }, 
  {
    "city": "Jangy-Aryk", 
    "lat": "40.6500", 
    "lng": "73.1083", 
    "country": "Kyrgyzstan", 
    "iso2": "KG", 
    "admin_name": "Osh", 
    "capital": "", 
    "population": "6693", 
    "population_proper": "6693"
  }, 
  {
    "city": "Ken-Say", 
    "lat": "40.7056", 
    "lng": "72.9056", 
    "country": "Kyrgyzstan", 
    "iso2": "KG", 
    "admin_name": "Osh", 
    "capital": "", 
    "population": "6604", 
    "population_proper": "6604"
  }, 
  {
    "city": "Bayastan", 
    "lat": "41.3333", 
    "lng": "71.5833", 
    "country": "Kyrgyzstan", 
    "iso2": "KG", 
    "admin_name": "Jalal-Abad", 
    "capital": "", 
    "population": "6600", 
    "population_proper": "6600"
  }, 
  {
    "city": "Otuz-Adyr", 
    "lat": "40.6000", 
    "lng": "72.9600", 
    "country": "Kyrgyzstan", 
    "iso2": "KG", 
    "admin_name": "Osh", 
    "capital": "", 
    "population": "6597", 
    "population_proper": "6597"
  }, 
  {
    "city": "Aral", 
    "lat": "40.8542", 
    "lng": "72.6833", 
    "country": "Kyrgyzstan", 
    "iso2": "KG", 
    "admin_name": "Jalal-Abad", 
    "capital": "", 
    "population": "6574", 
    "population_proper": "6574"
  }, 
  {
    "city": "Kyrgyz-Ata", 
    "lat": "40.2028", 
    "lng": "72.6806", 
    "country": "Kyrgyzstan", 
    "iso2": "KG", 
    "admin_name": "Osh", 
    "capital": "", 
    "population": "6538", 
    "population_proper": "6538"
  }, 
  {
    "city": "Mikhaylovka", 
    "lat": "41.1000", 
    "lng": "73.2250", 
    "country": "Kyrgyzstan", 
    "iso2": "KG", 
    "admin_name": "Jalal-Abad", 
    "capital": "", 
    "population": "6488", 
    "population_proper": "6488"
  }, 
  {
    "city": "Kümüsh-Aziz", 
    "lat": "40.8958", 
    "lng": "72.9222", 
    "country": "Kyrgyzstan", 
    "iso2": "KG", 
    "admin_name": "Jalal-Abad", 
    "capital": "", 
    "population": "6446", 
    "population_proper": "6446"
  }, 
  {
    "city": "Vasil’evka", 
    "lat": "43.0972", 
    "lng": "74.5861", 
    "country": "Kyrgyzstan", 
    "iso2": "KG", 
    "admin_name": "Chüy", 
    "capital": "", 
    "population": "6422", 
    "population_proper": "6422"
  }, 
  {
    "city": "Köchübaev", 
    "lat": "40.5083", 
    "lng": "72.4444", 
    "country": "Kyrgyzstan", 
    "iso2": "KG", 
    "admin_name": "Osh", 
    "capital": "", 
    "population": "6390", 
    "population_proper": "6390"
  }, 
  {
    "city": "Kyzyl-Jol", 
    "lat": "40.0417", 
    "lng": "70.8083", 
    "country": "Kyrgyzstan", 
    "iso2": "KG", 
    "admin_name": "Batken", 
    "capital": "", 
    "population": "6378", 
    "population_proper": "6378"
  }, 
  {
    "city": "Khalmion", 
    "lat": "40.2122", 
    "lng": "71.6328", 
    "country": "Kyrgyzstan", 
    "iso2": "KG", 
    "admin_name": "Batken", 
    "capital": "minor", 
    "population": "6274", 
    "population_proper": "6274"
  }, 
  {
    "city": "Dzhar-Kyshtak", 
    "lat": "40.8833", 
    "lng": "72.9472", 
    "country": "Kyrgyzstan", 
    "iso2": "KG", 
    "admin_name": "Jalal-Abad", 
    "capital": "", 
    "population": "6253", 
    "population_proper": "6253"
  }, 
  {
    "city": "Kyrgyz-Chek", 
    "lat": "40.5500", 
    "lng": "72.8700", 
    "country": "Kyrgyzstan", 
    "iso2": "KG", 
    "admin_name": "Osh", 
    "capital": "", 
    "population": "6196", 
    "population_proper": "6196"
  }, 
  {
    "city": "Pravda", 
    "lat": "40.6944", 
    "lng": "73.1194", 
    "country": "Kyrgyzstan", 
    "iso2": "KG", 
    "admin_name": "Osh", 
    "capital": "", 
    "population": "6136", 
    "population_proper": "6136"
  }, 
  {
    "city": "Jangy-Jer", 
    "lat": "43.1083", 
    "lng": "74.3833", 
    "country": "Kyrgyzstan", 
    "iso2": "KG", 
    "admin_name": "Chüy", 
    "capital": "", 
    "population": "6128", 
    "population_proper": "6128"
  }, 
  {
    "city": "Gülstan", 
    "lat": "40.2611", 
    "lng": "72.6000", 
    "country": "Kyrgyzstan", 
    "iso2": "KG", 
    "admin_name": "Osh", 
    "capital": "", 
    "population": "6113", 
    "population_proper": "6113"
  }, 
  {
    "city": "Kyzyl-Shark", 
    "lat": "40.7250", 
    "lng": "72.9306", 
    "country": "Kyrgyzstan", 
    "iso2": "KG", 
    "admin_name": "Osh", 
    "capital": "", 
    "population": "6102", 
    "population_proper": "6102"
  }, 
  {
    "city": "Bash-Bulak", 
    "lat": "40.5100", 
    "lng": "72.9600", 
    "country": "Kyrgyzstan", 
    "iso2": "KG", 
    "admin_name": "Osh", 
    "capital": "", 
    "population": "6020", 
    "population_proper": "6020"
  }, 
  {
    "city": "Sosnovka", 
    "lat": "42.6756", 
    "lng": "73.9061", 
    "country": "Kyrgyzstan", 
    "iso2": "KG", 
    "admin_name": "Chüy", 
    "capital": "", 
    "population": "5972", 
    "population_proper": "5972"
  }, 
  {
    "city": "Ayra-Tam", 
    "lat": "41.1278", 
    "lng": "71.4083", 
    "country": "Kyrgyzstan", 
    "iso2": "KG", 
    "admin_name": "Jalal-Abad", 
    "capital": "", 
    "population": "5864", 
    "population_proper": "5864"
  }, 
  {
    "city": "Dzhany-Aryk", 
    "lat": "41.0514", 
    "lng": "72.3261", 
    "country": "Kyrgyzstan", 
    "iso2": "KG", 
    "admin_name": "Jalal-Abad", 
    "capital": "", 
    "population": "5859", 
    "population_proper": "5859"
  }, 
  {
    "city": "Blagoveshenka", 
    "lat": "40.9778", 
    "lng": "72.9667", 
    "country": "Kyrgyzstan", 
    "iso2": "KG", 
    "admin_name": "Jalal-Abad", 
    "capital": "", 
    "population": "5848", 
    "population_proper": "5848"
  }, 
  {
    "city": "Kyzyl-Ay", 
    "lat": "40.9972", 
    "lng": "72.6889", 
    "country": "Kyrgyzstan", 
    "iso2": "KG", 
    "admin_name": "Jalal-Abad", 
    "capital": "", 
    "population": "5846", 
    "population_proper": "5846"
  }, 
  {
    "city": "Kyrgyz-Kyshtak", 
    "lat": "40.3083", 
    "lng": "71.3500", 
    "country": "Kyrgyzstan", 
    "iso2": "KG", 
    "admin_name": "Batken", 
    "capital": "minor", 
    "population": "5809", 
    "population_proper": "5809"
  }, 
  {
    "city": "Shoro-Bashat", 
    "lat": "40.8417", 
    "lng": "73.2694", 
    "country": "Kyrgyzstan", 
    "iso2": "KG", 
    "admin_name": "Osh", 
    "capital": "", 
    "population": "5808", 
    "population_proper": "5808"
  }, 
  {
    "city": "Charbak", 
    "lat": "41.2556", 
    "lng": "73.0056", 
    "country": "Kyrgyzstan", 
    "iso2": "KG", 
    "admin_name": "Jalal-Abad", 
    "capital": "", 
    "population": "5743", 
    "population_proper": "5743"
  }, 
  {
    "city": "Tëlëyken", 
    "lat": "40.4806", 
    "lng": "72.8222", 
    "country": "Kyrgyzstan", 
    "iso2": "KG", 
    "admin_name": "Osh", 
    "capital": "", 
    "population": "5673", 
    "population_proper": "5673"
  }, 
  {
    "city": "Klyuchevka", 
    "lat": "42.5600", 
    "lng": "71.8000", 
    "country": "Kyrgyzstan", 
    "iso2": "KG", 
    "admin_name": "Talas", 
    "capital": "", 
    "population": "5596", 
    "population_proper": "5596"
  }, 
  {
    "city": "Dyuksemburg", 
    "lat": "42.8889", 
    "lng": "74.8306", 
    "country": "Kyrgyzstan", 
    "iso2": "KG", 
    "admin_name": "Chüy", 
    "capital": "", 
    "population": "5528", 
    "population_proper": "5528"
  }, 
  {
    "city": "Birinchi May", 
    "lat": "41.0917", 
    "lng": "72.7639", 
    "country": "Kyrgyzstan", 
    "iso2": "KG", 
    "admin_name": "Jalal-Abad", 
    "capital": "", 
    "population": "5518", 
    "population_proper": "5518"
  }, 
  {
    "city": "Jerge-Tal", 
    "lat": "41.5750", 
    "lng": "71.8139", 
    "country": "Kyrgyzstan", 
    "iso2": "KG", 
    "admin_name": "Jalal-Abad", 
    "capital": "", 
    "population": "5436", 
    "population_proper": "5436"
  }, 
  {
    "city": "Dzhiydalik", 
    "lat": "40.5639", 
    "lng": "72.7917", 
    "country": "Kyrgyzstan", 
    "iso2": "KG", 
    "admin_name": "Osh", 
    "capital": "", 
    "population": "5422", 
    "population_proper": "5422"
  }, 
  {
    "city": "Tash-Döbö", 
    "lat": "42.7222", 
    "lng": "74.5722", 
    "country": "Kyrgyzstan", 
    "iso2": "KG", 
    "admin_name": "Chüy", 
    "capital": "", 
    "population": "5397", 
    "population_proper": "5397"
  }, 
  {
    "city": "Beshik-Jon", 
    "lat": "41.0444", 
    "lng": "72.7944", 
    "country": "Kyrgyzstan", 
    "iso2": "KG", 
    "admin_name": "Jalal-Abad", 
    "capital": "", 
    "population": "5342", 
    "population_proper": "5342"
  }, 
  {
    "city": "Milyanfan", 
    "lat": "42.9600", 
    "lng": "74.8000", 
    "country": "Kyrgyzstan", 
    "iso2": "KG", 
    "admin_name": "Chüy", 
    "capital": "", 
    "population": "5271", 
    "population_proper": "5271"
  }, 
  {
    "city": "Borbash", 
    "lat": "40.2833", 
    "lng": "72.3722", 
    "country": "Kyrgyzstan", 
    "iso2": "KG", 
    "admin_name": "Osh", 
    "capital": "", 
    "population": "5248", 
    "population_proper": "5248"
  }, 
  {
    "city": "Komsomol", 
    "lat": "41.0861", 
    "lng": "73.1917", 
    "country": "Kyrgyzstan", 
    "iso2": "KG", 
    "admin_name": "Jalal-Abad", 
    "capital": "", 
    "population": "5237", 
    "population_proper": "5237"
  }, 
  {
    "city": "Sheraly", 
    "lat": "40.7528", 
    "lng": "73.2806", 
    "country": "Kyrgyzstan", 
    "iso2": "KG", 
    "admin_name": "Osh", 
    "capital": "", 
    "population": "5200", 
    "population_proper": "5200"
  }, 
  {
    "city": "Acha-Kayyngdy", 
    "lat": "41.1417", 
    "lng": "75.8111", 
    "country": "Kyrgyzstan", 
    "iso2": "KG", 
    "admin_name": "Naryn", 
    "capital": "", 
    "population": "5181", 
    "population_proper": "5181"
  }, 
  {
    "city": "Ak-Tash", 
    "lat": "40.6694", 
    "lng": "72.8139", 
    "country": "Kyrgyzstan", 
    "iso2": "KG", 
    "admin_name": "Osh", 
    "capital": "", 
    "population": "5148", 
    "population_proper": "5148"
  }, 
  {
    "city": "Grigor’evka", 
    "lat": "42.7200", 
    "lng": "77.4700", 
    "country": "Kyrgyzstan", 
    "iso2": "KG", 
    "admin_name": "Ysyk-Köl", 
    "capital": "", 
    "population": "5133", 
    "population_proper": "5133"
  }, 
  {
    "city": "Kyzyl-Sengir", 
    "lat": "40.6417", 
    "lng": "73.1389", 
    "country": "Kyrgyzstan", 
    "iso2": "KG", 
    "admin_name": "Osh", 
    "capital": "", 
    "population": "5077", 
    "population_proper": "5077"
  }, 
  {
    "city": "Chek", 
    "lat": "40.1111", 
    "lng": "70.8472", 
    "country": "Kyrgyzstan", 
    "iso2": "KG", 
    "admin_name": "Batken", 
    "capital": "minor", 
    "population": "5059", 
    "population_proper": "5059"
  }, 
  {
    "city": "Noygut", 
    "lat": "40.2444", 
    "lng": "72.6083", 
    "country": "Kyrgyzstan", 
    "iso2": "KG", 
    "admin_name": "Osh", 
    "capital": "", 
    "population": "5043", 
    "population_proper": "5043"
  }, 
  {
    "city": "Monok", 
    "lat": "40.6278", 
    "lng": "72.7861", 
    "country": "Kyrgyzstan", 
    "iso2": "KG", 
    "admin_name": "Osh", 
    "capital": "", 
    "population": "5020", 
    "population_proper": "5020"
  }, 
  {
    "city": "Changyr-Tash", 
    "lat": "40.8639", 
    "lng": "72.7569", 
    "country": "Kyrgyzstan", 
    "iso2": "KG", 
    "admin_name": "Jalal-Abad", 
    "capital": "", 
    "population": "4845", 
    "population_proper": "4845"
  }, 
  {
    "city": "Kanysh-Kyya", 
    "lat": "41.7500", 
    "lng": "71.0800", 
    "country": "Kyrgyzstan", 
    "iso2": "KG", 
    "admin_name": "Jalal-Abad", 
    "capital": "minor", 
    "population": "4805", 
    "population_proper": "4805"
  }, 
  {
    "city": "Kyzyl-Too", 
    "lat": "40.8278", 
    "lng": "73.5222", 
    "country": "Kyrgyzstan", 
    "iso2": "KG", 
    "admin_name": "Osh", 
    "capital": "", 
    "population": "4690", 
    "population_proper": "4690"
  }, 
  {
    "city": "Uchar", 
    "lat": "40.4800", 
    "lng": "72.7900", 
    "country": "Kyrgyzstan", 
    "iso2": "KG", 
    "admin_name": "Osh", 
    "capital": "", 
    "population": "4651", 
    "population_proper": "4651"
  }, 
  {
    "city": "Madaniyat", 
    "lat": "40.5900", 
    "lng": "72.8600", 
    "country": "Kyrgyzstan", 
    "iso2": "KG", 
    "admin_name": "Osh", 
    "capital": "", 
    "population": "4599", 
    "population_proper": "4599"
  }, 
  {
    "city": "Tësh", 
    "lat": "40.8744", 
    "lng": "72.6333", 
    "country": "Kyrgyzstan", 
    "iso2": "KG", 
    "admin_name": "Jalal-Abad", 
    "capital": "", 
    "population": "4579", 
    "population_proper": "4579"
  }, 
  {
    "city": "Jylandy", 
    "lat": "40.8250", 
    "lng": "73.3139", 
    "country": "Kyrgyzstan", 
    "iso2": "KG", 
    "admin_name": "Osh", 
    "capital": "", 
    "population": "4548", 
    "population_proper": "4548"
  }, 
  {
    "city": "Komintern", 
    "lat": "41.0417", 
    "lng": "72.5861", 
    "country": "Kyrgyzstan", 
    "iso2": "KG", 
    "admin_name": "Jalal-Abad", 
    "capital": "", 
    "population": "4498", 
    "population_proper": "4498"
  }, 
  {
    "city": "Ak-Terek", 
    "lat": "42.2360", 
    "lng": "77.7270", 
    "country": "Kyrgyzstan", 
    "iso2": "KG", 
    "admin_name": "Ysyk-Köl", 
    "capital": "", 
    "population": "4479", 
    "population_proper": "4479"
  }, 
  {
    "city": "Beshkent", 
    "lat": "40.0303", 
    "lng": "69.8183", 
    "country": "Kyrgyzstan", 
    "iso2": "KG", 
    "admin_name": "Batken", 
    "capital": "minor", 
    "population": "4474", 
    "population_proper": "4474"
  }, 
  {
    "city": "Kachkynchy", 
    "lat": "41.0100", 
    "lng": "73.0500", 
    "country": "Kyrgyzstan", 
    "iso2": "KG", 
    "admin_name": "Jalal-Abad", 
    "capital": "", 
    "population": "4468", 
    "population_proper": "4468"
  }, 
  {
    "city": "Alga", 
    "lat": "40.2361", 
    "lng": "71.5000", 
    "country": "Kyrgyzstan", 
    "iso2": "KG", 
    "admin_name": "Batken", 
    "capital": "minor", 
    "population": "4362", 
    "population_proper": "4362"
  }, 
  {
    "city": "Kaji-Say", 
    "lat": "42.1400", 
    "lng": "77.1806", 
    "country": "Kyrgyzstan", 
    "iso2": "KG", 
    "admin_name": "Ysyk-Köl", 
    "capital": "", 
    "population": "4220", 
    "population_proper": "4220"
  }, 
  {
    "city": "Orto-Say", 
    "lat": "42.8050", 
    "lng": "74.5972", 
    "country": "Kyrgyzstan", 
    "iso2": "KG", 
    "admin_name": "Bishkek", 
    "capital": "", 
    "population": "4111", 
    "population_proper": "4111"
  }, 
  {
    "city": "Bash-Kayyngdy", 
    "lat": "41.1500", 
    "lng": "75.9000", 
    "country": "Kyrgyzstan", 
    "iso2": "KG", 
    "admin_name": "Naryn", 
    "capital": "", 
    "population": "4078", 
    "population_proper": "4078"
  }, 
  {
    "city": "Tëlëyken", 
    "lat": "40.4400", 
    "lng": "72.5600", 
    "country": "Kyrgyzstan", 
    "iso2": "KG", 
    "admin_name": "Osh", 
    "capital": "", 
    "population": "4073", 
    "population_proper": "4073"
  }, 
  {
    "city": "Savay", 
    "lat": "40.7500", 
    "lng": "72.9800", 
    "country": "Kyrgyzstan", 
    "iso2": "KG", 
    "admin_name": "Osh", 
    "capital": "", 
    "population": "3964", 
    "population_proper": "3964"
  }, 
  {
    "city": "Yur’evka", 
    "lat": "42.7153", 
    "lng": "75.0344", 
    "country": "Kyrgyzstan", 
    "iso2": "KG", 
    "admin_name": "Chüy", 
    "capital": "", 
    "population": "3953", 
    "population_proper": "3953"
  }, 
  {
    "city": "Shamal-Terek", 
    "lat": "40.7944", 
    "lng": "73.5778", 
    "country": "Kyrgyzstan", 
    "iso2": "KG", 
    "admin_name": "Osh", 
    "capital": "", 
    "population": "3901", 
    "population_proper": "3901"
  }, 
  {
    "city": "Besh-Kyungëy", 
    "lat": "42.7733", 
    "lng": "74.6472", 
    "country": "Kyrgyzstan", 
    "iso2": "KG", 
    "admin_name": "Chüy", 
    "capital": "", 
    "population": "3856", 
    "population_proper": "3856"
  }, 
  {
    "city": "Merkit", 
    "lat": "40.3000", 
    "lng": "72.2000", 
    "country": "Kyrgyzstan", 
    "iso2": "KG", 
    "admin_name": "Osh", 
    "capital": "", 
    "population": "3803", 
    "population_proper": "3803"
  }, 
  {
    "city": "Arashan", 
    "lat": "42.7319", 
    "lng": "74.6433", 
    "country": "Kyrgyzstan", 
    "iso2": "KG", 
    "admin_name": "Chüy", 
    "capital": "", 
    "population": "3791", 
    "population_proper": "3791"
  }, 
  {
    "city": "Dzhany-Akman", 
    "lat": "41.0111", 
    "lng": "72.8139", 
    "country": "Kyrgyzstan", 
    "iso2": "KG", 
    "admin_name": "Jalal-Abad", 
    "capital": "", 
    "population": "3789", 
    "population_proper": "3789"
  }, 
  {
    "city": "Ken-Buluk", 
    "lat": "42.8722", 
    "lng": "75.1278", 
    "country": "Kyrgyzstan", 
    "iso2": "KG", 
    "admin_name": "Chüy", 
    "capital": "", 
    "population": "3741", 
    "population_proper": "3741"
  }, 
  {
    "city": "Üch-Terek", 
    "lat": "41.7639", 
    "lng": "73.1944", 
    "country": "Kyrgyzstan", 
    "iso2": "KG", 
    "admin_name": "Jalal-Abad", 
    "capital": "minor", 
    "population": "3717", 
    "population_proper": "3717"
  }, 
  {
    "city": "Ak-Suu", 
    "lat": "39.8958", 
    "lng": "69.3694", 
    "country": "Kyrgyzstan", 
    "iso2": "KG", 
    "admin_name": "Batken", 
    "capital": "minor", 
    "population": "3672", 
    "population_proper": "3672"
  }, 
  {
    "city": "Kyzyl-Oktyabr’", 
    "lat": "41.1028", 
    "lng": "72.7889", 
    "country": "Kyrgyzstan", 
    "iso2": "KG", 
    "admin_name": "Jalal-Abad", 
    "capital": "", 
    "population": "3641", 
    "population_proper": "3641"
  }, 
  {
    "city": "Kyzyl-Senir", 
    "lat": "41.0417", 
    "lng": "73.0028", 
    "country": "Kyrgyzstan", 
    "iso2": "KG", 
    "admin_name": "Jalal-Abad", 
    "capital": "", 
    "population": "3612", 
    "population_proper": "3612"
  }, 
  {
    "city": "Dmitriyevka", 
    "lat": "42.8944", 
    "lng": "74.9022", 
    "country": "Kyrgyzstan", 
    "iso2": "KG", 
    "admin_name": "Chüy", 
    "capital": "", 
    "population": "3602", 
    "population_proper": "3602"
  }, 
  {
    "city": "Karacha", 
    "lat": "41.0833", 
    "lng": "72.8083", 
    "country": "Kyrgyzstan", 
    "iso2": "KG", 
    "admin_name": "Jalal-Abad", 
    "capital": "", 
    "population": "3586", 
    "population_proper": "3586"
  }, 
  {
    "city": "Taran-Bazar", 
    "lat": "41.1267", 
    "lng": "73.3088", 
    "country": "Kyrgyzstan", 
    "iso2": "KG", 
    "admin_name": "Jalal-Abad", 
    "capital": "", 
    "population": "3522", 
    "population_proper": "3522"
  }, 
  {
    "city": "Orozbekov", 
    "lat": "40.0611", 
    "lng": "71.6833", 
    "country": "Kyrgyzstan", 
    "iso2": "KG", 
    "admin_name": "Batken", 
    "capital": "minor", 
    "population": "3503", 
    "population_proper": "3503"
  }, 
  {
    "city": "Mamazhan", 
    "lat": "40.6111", 
    "lng": "72.9194", 
    "country": "Kyrgyzstan", 
    "iso2": "KG", 
    "admin_name": "Osh", 
    "capital": "", 
    "population": "3445", 
    "population_proper": "3445"
  }, 
  {
    "city": "Chat-Kël’", 
    "lat": "42.9300", 
    "lng": "74.3500", 
    "country": "Kyrgyzstan", 
    "iso2": "KG", 
    "admin_name": "Chüy", 
    "capital": "", 
    "population": "3414", 
    "population_proper": "3414"
  }, 
  {
    "city": "Kürmöntü", 
    "lat": "42.7800", 
    "lng": "78.2500", 
    "country": "Kyrgyzstan", 
    "iso2": "KG", 
    "admin_name": "Ysyk-Köl", 
    "capital": "", 
    "population": "3396", 
    "population_proper": "3396"
  }, 
  {
    "city": "Internatsional", 
    "lat": "40.2722", 
    "lng": "72.6639", 
    "country": "Kyrgyzstan", 
    "iso2": "KG", 
    "admin_name": "Osh", 
    "capital": "", 
    "population": "3390", 
    "population_proper": "3390"
  }, 
  {
    "city": "Ak-Dzhol", 
    "lat": "42.9428", 
    "lng": "74.4861", 
    "country": "Kyrgyzstan", 
    "iso2": "KG", 
    "admin_name": "Chüy", 
    "capital": "", 
    "population": "3358", 
    "population_proper": "3358"
  }, 
  {
    "city": "Emgekchil", 
    "lat": "41.5553", 
    "lng": "75.9717", 
    "country": "Kyrgyzstan", 
    "iso2": "KG", 
    "admin_name": "Naryn", 
    "capital": "", 
    "population": "3353", 
    "population_proper": "3353"
  }, 
  {
    "city": "Gerey-Shoron", 
    "lat": "40.3000", 
    "lng": "72.2300", 
    "country": "Kyrgyzstan", 
    "iso2": "KG", 
    "admin_name": "Osh", 
    "capital": "", 
    "population": "3326", 
    "population_proper": "3326"
  }, 
  {
    "city": "Karamyk", 
    "lat": "39.4833", 
    "lng": "71.8000", 
    "country": "Kyrgyzstan", 
    "iso2": "KG", 
    "admin_name": "Osh", 
    "capital": "", 
    "population": "3324", 
    "population_proper": "3324"
  }, 
  {
    "city": "Khadzhir-Abad", 
    "lat": "40.9444", 
    "lng": "72.6167", 
    "country": "Kyrgyzstan", 
    "iso2": "KG", 
    "admin_name": "Jalal-Abad", 
    "capital": "", 
    "population": "3317", 
    "population_proper": "3317"
  }, 
  {
    "city": "Totiya", 
    "lat": "40.8750", 
    "lng": "72.9583", 
    "country": "Kyrgyzstan", 
    "iso2": "KG", 
    "admin_name": "Jalal-Abad", 
    "capital": "", 
    "population": "3302", 
    "population_proper": "3302"
  }, 
  {
    "city": "Oogon-Talaa", 
    "lat": "41.2639", 
    "lng": "73.0222", 
    "country": "Kyrgyzstan", 
    "iso2": "KG", 
    "admin_name": "Jalal-Abad", 
    "capital": "", 
    "population": "3274", 
    "population_proper": "3274"
  }, 
  {
    "city": "Orto-Alysh", 
    "lat": "42.7367", 
    "lng": "74.5483", 
    "country": "Kyrgyzstan", 
    "iso2": "KG", 
    "admin_name": "Chüy", 
    "capital": "", 
    "population": "3236", 
    "population_proper": "3236"
  }, 
  {
    "city": "Bash-Kuugandy", 
    "lat": "42.0028", 
    "lng": "74.6556", 
    "country": "Kyrgyzstan", 
    "iso2": "KG", 
    "admin_name": "Naryn", 
    "capital": "", 
    "population": "3218", 
    "population_proper": "3218"
  }, 
  {
    "city": "Kamyshanovka", 
    "lat": "43.2178", 
    "lng": "74.2372", 
    "country": "Kyrgyzstan", 
    "iso2": "KG", 
    "admin_name": "Chüy", 
    "capital": "", 
    "population": "3196", 
    "population_proper": "3196"
  }, 
  {
    "city": "Orto-Aziya", 
    "lat": "41.0100", 
    "lng": "72.9800", 
    "country": "Kyrgyzstan", 
    "iso2": "KG", 
    "admin_name": "Jalal-Abad", 
    "capital": "", 
    "population": "3186", 
    "population_proper": "3186"
  }, 
  {
    "city": "Alma", 
    "lat": "41.0917", 
    "lng": "72.6833", 
    "country": "Kyrgyzstan", 
    "iso2": "KG", 
    "admin_name": "Jalal-Abad", 
    "capital": "", 
    "population": "3154", 
    "population_proper": "3154"
  }, 
  {
    "city": "Kara-Dzhygach", 
    "lat": "40.1300", 
    "lng": "72.0800", 
    "country": "Kyrgyzstan", 
    "iso2": "KG", 
    "admin_name": "Batken", 
    "capital": "minor", 
    "population": "3152", 
    "population_proper": "3152"
  }, 
  {
    "city": "Ak-Shor", 
    "lat": "40.4600", 
    "lng": "72.2100", 
    "country": "Kyrgyzstan", 
    "iso2": "KG", 
    "admin_name": "Osh", 
    "capital": "", 
    "population": "3129", 
    "population_proper": "3129"
  }, 
  {
    "city": "Romanovka", 
    "lat": "42.8600", 
    "lng": "74.3300", 
    "country": "Kyrgyzstan", 
    "iso2": "KG", 
    "admin_name": "Chüy", 
    "capital": "", 
    "population": "3102", 
    "population_proper": "3102"
  }, 
  {
    "city": "Kegeti", 
    "lat": "42.6900", 
    "lng": "75.1700", 
    "country": "Kyrgyzstan", 
    "iso2": "KG", 
    "admin_name": "Chüy", 
    "capital": "", 
    "population": "3004", 
    "population_proper": "3004"
  }, 
  {
    "city": "Uchkun", 
    "lat": "41.3700", 
    "lng": "75.3600", 
    "country": "Kyrgyzstan", 
    "iso2": "KG", 
    "admin_name": "Naryn", 
    "capital": "", 
    "population": "3000", 
    "population_proper": "3000"
  }, 
  {
    "city": "Selektsionnoye", 
    "lat": "42.8347", 
    "lng": "74.5232", 
    "country": "Kyrgyzstan", 
    "iso2": "KG", 
    "admin_name": "Chüy", 
    "capital": "", 
    "population": "2988", 
    "population_proper": "2988"
  }, 
  {
    "city": "Sary-Kashka", 
    "lat": "41.4083", 
    "lng": "71.8814", 
    "country": "Kyrgyzstan", 
    "iso2": "KG", 
    "admin_name": "Jalal-Abad", 
    "capital": "", 
    "population": "2979", 
    "population_proper": "2979"
  }, 
  {
    "city": "Bagysh", 
    "lat": "41.0158", 
    "lng": "73.0894", 
    "country": "Kyrgyzstan", 
    "iso2": "KG", 
    "admin_name": "Jalal-Abad", 
    "capital": "", 
    "population": "2963", 
    "population_proper": "2963"
  }, 
  {
    "city": "Sargata", 
    "lat": "41.7300", 
    "lng": "73.2000", 
    "country": "Kyrgyzstan", 
    "iso2": "KG", 
    "admin_name": "Jalal-Abad", 
    "capital": "", 
    "population": "2962", 
    "population_proper": "2962"
  }, 
  {
    "city": "Kenesh", 
    "lat": "42.8939", 
    "lng": "74.9344", 
    "country": "Kyrgyzstan", 
    "iso2": "KG", 
    "admin_name": "Chüy", 
    "capital": "", 
    "population": "2927", 
    "population_proper": "2927"
  }, 
  {
    "city": "Kara-Alma", 
    "lat": "41.2100", 
    "lng": "73.3367", 
    "country": "Kyrgyzstan", 
    "iso2": "KG", 
    "admin_name": "Jalal-Abad", 
    "capital": "", 
    "population": "2918", 
    "population_proper": "2918"
  }, 
  {
    "city": "Mady", 
    "lat": "40.5389", 
    "lng": "72.9444", 
    "country": "Kyrgyzstan", 
    "iso2": "KG", 
    "admin_name": "Osh", 
    "capital": "", 
    "population": "2876", 
    "population_proper": "2876"
  }, 
  {
    "city": "Balbay", 
    "lat": "42.7800", 
    "lng": "78.2800", 
    "country": "Kyrgyzstan", 
    "iso2": "KG", 
    "admin_name": "Ysyk-Köl", 
    "capital": "", 
    "population": "2837", 
    "population_proper": "2837"
  }, 
  {
    "city": "Jar-Bashy", 
    "lat": "39.5100", 
    "lng": "72.1100", 
    "country": "Kyrgyzstan", 
    "iso2": "KG", 
    "admin_name": "Osh", 
    "capital": "", 
    "population": "2798", 
    "population_proper": "2798"
  }, 
  {
    "city": "Kyzyl-Tuu", 
    "lat": "41.6750", 
    "lng": "72.0278", 
    "country": "Kyrgyzstan", 
    "iso2": "KG", 
    "admin_name": "Jalal-Abad", 
    "capital": "", 
    "population": "2792", 
    "population_proper": "2792"
  }, 
  {
    "city": "Kenzhekul", 
    "lat": "40.6383", 
    "lng": "72.8133", 
    "country": "Kyrgyzstan", 
    "iso2": "KG", 
    "admin_name": "Osh", 
    "capital": "", 
    "population": "2789", 
    "population_proper": "2789"
  }, 
  {
    "city": "Koy-Tash", 
    "lat": "42.7172", 
    "lng": "74.6650", 
    "country": "Kyrgyzstan", 
    "iso2": "KG", 
    "admin_name": "Chüy", 
    "capital": "", 
    "population": "2736", 
    "population_proper": "2736"
  }, 
  {
    "city": "Dzhany-Dyykan", 
    "lat": "40.9583", 
    "lng": "72.9306", 
    "country": "Kyrgyzstan", 
    "iso2": "KG", 
    "admin_name": "Jalal-Abad", 
    "capital": "", 
    "population": "2726", 
    "population_proper": "2726"
  }, 
  {
    "city": "Boston", 
    "lat": "41.0300", 
    "lng": "72.9600", 
    "country": "Kyrgyzstan", 
    "iso2": "KG", 
    "admin_name": "Jalal-Abad", 
    "capital": "", 
    "population": "2713", 
    "population_proper": "2713"
  }, 
  {
    "city": "Achyk-Suu", 
    "lat": "39.4697", 
    "lng": "72.4986", 
    "country": "Kyrgyzstan", 
    "iso2": "KG", 
    "admin_name": "Osh", 
    "capital": "", 
    "population": "2686", 
    "population_proper": "2686"
  }, 
  {
    "city": "Say", 
    "lat": "40.5833", 
    "lng": "73.6597", 
    "country": "Kyrgyzstan", 
    "iso2": "KG", 
    "admin_name": "Osh", 
    "capital": "", 
    "population": "2678", 
    "population_proper": "2678"
  }, 
  {
    "city": "Alim-Tepe", 
    "lat": "40.6100", 
    "lng": "72.7600", 
    "country": "Kyrgyzstan", 
    "iso2": "KG", 
    "admin_name": "Osh", 
    "capital": "", 
    "population": "2669", 
    "population_proper": "2669"
  }, 
  {
    "city": "Kolot", 
    "lat": "40.9833", 
    "lng": "72.7750", 
    "country": "Kyrgyzstan", 
    "iso2": "KG", 
    "admin_name": "Jalal-Abad", 
    "capital": "", 
    "population": "2668", 
    "population_proper": "2668"
  }, 
  {
    "city": "Ay-Tamga", 
    "lat": "40.3183", 
    "lng": "72.2506", 
    "country": "Kyrgyzstan", 
    "iso2": "KG", 
    "admin_name": "Osh", 
    "capital": "", 
    "population": "2648", 
    "population_proper": "2648"
  }, 
  {
    "city": "Ak-Tektir", 
    "lat": "41.9639", 
    "lng": "72.5139", 
    "country": "Kyrgyzstan", 
    "iso2": "KG", 
    "admin_name": "Jalal-Abad", 
    "capital": "", 
    "population": "2618", 
    "population_proper": "2618"
  }, 
  {
    "city": "Progress", 
    "lat": "42.7244", 
    "lng": "75.3908", 
    "country": "Kyrgyzstan", 
    "iso2": "KG", 
    "admin_name": "Chüy", 
    "capital": "", 
    "population": "2591", 
    "population_proper": "2591"
  }, 
  {
    "city": "Toguz-Bulak", 
    "lat": "40.3800", 
    "lng": "73.4100", 
    "country": "Kyrgyzstan", 
    "iso2": "KG", 
    "admin_name": "Osh", 
    "capital": "", 
    "population": "2584", 
    "population_proper": "2584"
  }, 
  {
    "city": "Kara-Oy", 
    "lat": "42.4583", 
    "lng": "72.7111", 
    "country": "Kyrgyzstan", 
    "iso2": "KG", 
    "admin_name": "Talas", 
    "capital": "", 
    "population": "2572", 
    "population_proper": "2572"
  }, 
  {
    "city": "Kayyrma", 
    "lat": "40.9889", 
    "lng": "72.8000", 
    "country": "Kyrgyzstan", 
    "iso2": "KG", 
    "admin_name": "Jalal-Abad", 
    "capital": "", 
    "population": "2554", 
    "population_proper": "2554"
  }, 
  {
    "city": "Kayragach", 
    "lat": "40.0508", 
    "lng": "69.7431", 
    "country": "Kyrgyzstan", 
    "iso2": "KG", 
    "admin_name": "Batken", 
    "capital": "", 
    "population": "2553", 
    "population_proper": "2553"
  }, 
  {
    "city": "Aral", 
    "lat": "40.8667", 
    "lng": "72.9194", 
    "country": "Kyrgyzstan", 
    "iso2": "KG", 
    "admin_name": "Jalal-Abad", 
    "capital": "", 
    "population": "2463", 
    "population_proper": "2463"
  }, 
  {
    "city": "Malovodnoye", 
    "lat": "42.8444", 
    "lng": "74.3806", 
    "country": "Kyrgyzstan", 
    "iso2": "KG", 
    "admin_name": "Chüy", 
    "capital": "", 
    "population": "2433", 
    "population_proper": "2433"
  }, 
  {
    "city": "Masadan", 
    "lat": "40.8978", 
    "lng": "72.9692", 
    "country": "Kyrgyzstan", 
    "iso2": "KG", 
    "admin_name": "Jalal-Abad", 
    "capital": "", 
    "population": "2391", 
    "population_proper": "2391"
  }, 
  {
    "city": "Erkin-Too", 
    "lat": "40.8167", 
    "lng": "73.5917", 
    "country": "Kyrgyzstan", 
    "iso2": "KG", 
    "admin_name": "Osh", 
    "capital": "", 
    "population": "2389", 
    "population_proper": "2389"
  }, 
  {
    "city": "Kyzyl-Bulak", 
    "lat": "40.0300", 
    "lng": "71.7500", 
    "country": "Kyrgyzstan", 
    "iso2": "KG", 
    "admin_name": "Batken", 
    "capital": "minor", 
    "population": "2272", 
    "population_proper": "2272"
  }, 
  {
    "city": "Korgon", 
    "lat": "39.8889", 
    "lng": "69.9361", 
    "country": "Kyrgyzstan", 
    "iso2": "KG", 
    "admin_name": "Batken", 
    "capital": "minor", 
    "population": "2204", 
    "population_proper": "2204"
  }, 
  {
    "city": "Tayan", 
    "lat": "39.9028", 
    "lng": "71.1083", 
    "country": "Kyrgyzstan", 
    "iso2": "KG", 
    "admin_name": "Batken", 
    "capital": "minor", 
    "population": "1693", 
    "population_proper": "1693"
  }, 
  {
    "city": "Toguz-Bulak", 
    "lat": "39.8667", 
    "lng": "69.7500", 
    "country": "Kyrgyzstan", 
    "iso2": "KG", 
    "admin_name": "Batken", 
    "capital": "minor", 
    "population": "1028", 
    "population_proper": "1028"
  }, 
  {
    "city": "Ak-Tatyr", 
    "lat": "39.9599", 
    "lng": "70.4845", 
    "country": "Kyrgyzstan", 
    "iso2": "KG", 
    "admin_name": "Batken", 
    "capital": "minor", 
    "population": "", 
    "population_proper": ""
  }, 
  {
    "city": "Ak-Say", 
    "lat": "39.8744", 
    "lng": "70.5221", 
    "country": "Kyrgyzstan", 
    "iso2": "KG", 
    "admin_name": "Batken", 
    "capital": "minor", 
    "population": "", 
    "population_proper": ""
  }, 
  {
    "city": "Ormosh", 
    "lat": "39.9459", 
    "lng": "71.2609", 
    "country": "Kyrgyzstan", 
    "iso2": "KG", 
    "admin_name": "Batken", 
    "capital": "minor", 
    "population": "", 
    "population_proper": ""
  }, 
  {
    "city": "Kara-Döbö", 
    "lat": "40.2443", 
    "lng": "72.0448", 
    "country": "Kyrgyzstan", 
    "iso2": "KG", 
    "admin_name": "Batken", 
    "capital": "minor", 
    "population": "", 
    "population_proper": ""
  }, 
  {
    "city": "Leninpol’", 
    "lat": "42.4930", 
    "lng": "71.9236", 
    "country": "Kyrgyzstan", 
    "iso2": "KG", 
    "admin_name": "Talas", 
    "capital": "minor", 
    "population": "", 
    "population_proper": ""
  }, 
  {
    "city": "Boz-Adyr", 
    "lat": "39.9986", 
    "lng": "71.0734", 
    "country": "Kyrgyzstan", 
    "iso2": "KG", 
    "admin_name": "Batken", 
    "capital": "minor", 
    "population": "", 
    "population_proper": ""
  }
]